{
"type": "FeatureCollection",
"name": "strasbourg_marches_noel",
"crs": { "type": "name", "properties": { "name": "urn:ogc:def:crs:OGC:1.3:CRS84" } },
"features": [
{ "type": "Feature", "properties": { "address": "Place de la Cathédrale, La Petite France, Krutenau, Strasbourg, Bas-Rhin, Grand Est, Metropolitan France, France" }, "geometry": { "type": "Point", "coordinates": [ 7.750155594130138, 48.58155505 ] } },
{ "type": "Feature", "properties": { "address": "Place Kléber, La Petite France, Krutenau, Strasbourg, Bas-Rhin, Grand Est, Metropolitan France, France" }, "geometry": { "type": "Point", "coordinates": [ 7.745961790299789, 48.5833106 ] } },
{ "type": "Feature", "properties": { "address": "Place Gutenberg, La Petite France, Krutenau, Strasbourg, Bas-Rhin, Grand Est, Metropolitan France, 67065, France" }, "geometry": { "type": "Point", "coordinates": [ 7.7486118, 48.5814564 ] } },
{ "type": "Feature", "properties": { "address": "Place Broglie, La Petite France, Krutenau, Strasbourg, Bas-Rhin, Grand Est, Metropolitan France, France" }, "geometry": { "type": "Point", "coordinates": [ 7.750317708837652, 48.5849867 ] } },
{ "type": "Feature", "properties": { "address": "Place du Château, La Petite France, Krutenau, Strasbourg, Bas-Rhin, Grand Est, Metropolitan France, France" }, "geometry": { "type": "Point", "coordinates": [ 7.751392199379476, 48.58133775 ] } }
]
}
